[
  {
    "label": "サーティーワンアイスクリーム　福井ロウドサイド店",
    "address": "福井県福井市幾代２丁目1401",
    "postal": "910-0013",
    "tel": "0776-25-1031",
    "latitude": 36.0874532,
    "longitude": 136.22746
  },
  {
    "label": "東尋坊タワー",
    "address": "福井県坂井市三国町安島６４―１―４１",
    "postal": "913-0064",
    "tel": "0776-81-3700",
    "latitude": 36.2361231,
    "longitude": 136.1282911
  },
  {
    "label": "ＳＥキヨスクＪＲ鯖江駅店",
    "address": "福井県鯖江市日の出町１―１ＪＲ鯖江駅構内",
    "postal": "916-0053",
    "tel": "0778-51-1669",
    "latitude": 35.9433361,
    "longitude": 136.1887077
  },
  {
    "label": "Ｌａｍｐ",
    "address": "福井県小浜市遠敷７５―１―８",
    "postal": "917-0241",
    "tel": "0770-56-1724",
    "latitude": 35.4812012,
    "longitude": 135.7805444
  },
  {
    "label": "カンパネルラ",
    "address": "福井県鯖江市本町２丁目２―２２藤田ビル２Ｆ",
    "postal": "916-0026",
    "tel": "0778-52-5515",
    "latitude": 35.9455989,
    "longitude": 136.185082
  },
  {
    "label": "Ｍｙｒｉｃｈｅ　Ｌｕｎａ",
    "address": "福井県福井市和田東２丁目1406",
    "postal": "918-8237",
    "tel": "0776-28-6836",
    "latitude": 36.0509308,
    "longitude": 136.2495177
  },
  {
    "label": "西山公園　松堂庵",
    "address": "福井県鯖江市長泉寺町１丁目1008西山公園内",
    "postal": "916-0024",
    "tel": "0778-53-2239",
    "latitude": 35.951395,
    "longitude": 136.185621
  },
  {
    "label": "じゅげむ",
    "address": "福井県あわら市舟津２―１５",
    "postal": "910-4105",
    "tel": "0776-77-7700",
    "latitude": 36.2267251,
    "longitude": 136.1898507
  },
  {
    "label": "ゴディバ西武　福井店",
    "address": "福井県福井市中央１丁目８―１西武福井店新館地下１Ｆ",
    "postal": "910-0006",
    "tel": "0776-25-0665",
    "latitude": 36.0616133,
    "longitude": 136.2198715
  },
  {
    "label": "越前茶房　和樂",
    "address": "福井県吉田郡永平寺町松岡神明１丁目７０―１",
    "postal": "910-1117",
    "tel": "0776-61-2671",
    "latitude": 36.0947424,
    "longitude": 136.3023003
  },
  {
    "label": "ジャマイカ",
    "address": "福井県福井市日光２丁目２３―７",
    "postal": "910-0029",
    "tel": "0776-22-2247",
    "latitude": 36.0715853,
    "longitude": 136.1985739
  },
  {
    "label": "洋菓子工房　ひらやま",
    "address": "福井県敦賀市相生町１３―６",
    "postal": "914-0062",
    "tel": "0770-22-6006",
    "latitude": 35.6563604,
    "longitude": 136.0677501
  },
  {
    "label": "ふくてつ塚町ステーション",
    "address": "福井県越前市塚町218",
    "postal": "915-0092",
    "tel": "0778-23-1415",
    "latitude": 35.9164449,
    "longitude": 136.1917996
  },
  {
    "label": "フラット",
    "address": "福井県越前市本町１―２０",
    "postal": "915-0823",
    "tel": "0778-22-1712",
    "latitude": 35.9001544,
    "longitude": 136.1656359
  },
  {
    "label": "Ｐｏｏ　Ｗｏｏ　Ｌｏｏ",
    "address": "福井県越前市文京２丁目７―６",
    "postal": "915-0841",
    "tel": "0778-24-5678",
    "latitude": 35.893069,
    "longitude": 136.1606866
  },
  {
    "label": "お菓子の福寿堂",
    "address": "福井県鯖江市桜町２丁目６―１２",
    "postal": "916-0027",
    "tel": "0778-51-0474",
    "latitude": 35.9468406,
    "longitude": 136.1811359
  },
  {
    "label": "大統領",
    "address": "福井県小浜市南川町１８―８パチンコ大統領内",
    "postal": "917-0075",
    "tel": "0770-53-2485",
    "latitude": 35.4903817,
    "longitude": 135.7538733
  },
  {
    "label": "アルデーヌ．カナモリ",
    "address": "福井県三方上中郡若狭町気山２７５―２―３",
    "postal": "919-1301",
    "tel": "0770-45-1171",
    "latitude": 35.57336100000001,
    "longitude": 135.9090063
  },
  {
    "label": "ドライブイン水月",
    "address": "福井県三方上中郡若狭町海山７０―４―１",
    "postal": "919-1461",
    "tel": "0770-47-1627",
    "latitude": 35.5851062,
    "longitude": 135.867335
  },
  {
    "label": "お菓子の泰鳳堂",
    "address": "福井県福井市上北野２丁目２５―１０コーポＲＡＮⅡ１Ｆ",
    "postal": "918-8203",
    "tel": "0776-54-1583",
    "latitude": 36.0595744,
    "longitude": 136.2522198
  },
  {
    "label": "ビアードパパ福井店",
    "address": "福井県福井市飯塚町１１―１１アピタ福井店１Ｆ",
    "postal": "918-8067",
    "tel": "0776-33-0227",
    "latitude": 36.0660985,
    "longitude": 136.1832552
  },
  {
    "label": "セブン―イレブンキヨスクＪＲ武生駅店",
    "address": "福井県越前市府中１丁目１―１ＪＲ武生駅構内",
    "postal": "915-0071",
    "tel": "0778-25-5670",
    "latitude": 35.903455,
    "longitude": 136.170902
  },
  {
    "label": "咲來",
    "address": "福井県鯖江市下野田町１８―９―４",
    "postal": "916-0073",
    "tel": "0778-62-2728",
    "latitude": 35.9472702,
    "longitude": 136.1479279
  },
  {
    "label": "赤坂聖苑　喫茶コーナー",
    "address": "福井県坂井市丸岡町赤坂３―１０赤坂聖苑",
    "postal": "910-0212",
    "tel": "0776-67-5300",
    "latitude": 36.1607387,
    "longitude": 136.2931658
  },
  {
    "label": "至誠整骨院",
    "address": "福井県坂井市春江町東太郎丸８―９",
    "postal": "919-0475",
    "tel": "0776-43-1472",
    "latitude": 36.1286874,
    "longitude": 136.215722
  },
  {
    "label": "つみきハウス　華",
    "address": "福井県小浜市小浜白鬚１１１―１まちの駅内",
    "postal": "917-0069",
    "tel": "0770-53-1139",
    "latitude": 35.4951657,
    "longitude": 135.7417025
  },
  {
    "label": "ＳＵＰＥＲ　ＣＥＮＴＥＲ　ＰＬＡＮＴ―３　清水店",
    "address": "福井県福井市三留町２１―４",
    "postal": "910-3608",
    "tel": "0776-98-7311",
    "latitude": 36.0301339,
    "longitude": 136.1485021
  },
  {
    "label": "はんしょの下　木村餅店",
    "address": "福井県坂井市三国町覚善８―５８―４",
    "postal": "913-0041",
    "tel": "0776-82-0318",
    "latitude": 36.2199004,
    "longitude": 136.1587116
  },
  {
    "label": "ささえたまご農園",
    "address": "福井県敦賀市沓見８１―２―２",
    "postal": "914-0823",
    "tel": "0770-21-0063",
    "latitude": 35.6380588,
    "longitude": 136.01351
  },
  {
    "label": "政竜閣喫茶コーナー",
    "address": "福井県あわら市西温泉１丁目102政竜閣内",
    "postal": "910-4127",
    "tel": "0776-77-3100",
    "latitude": 36.2207757,
    "longitude": 136.1860234
  },
  {
    "label": "エルパークおおい",
    "address": "福井県大飯郡おおい町大島４０字堤下エルパ－クおおい内",
    "postal": "919-2101",
    "tel": "0770-77-3060",
    "latitude": 35.534842,
    "longitude": 135.655031
  },
  {
    "label": "美松喫茶コーナー",
    "address": "福井県あわら市舟津２６―１０",
    "postal": "910-4105",
    "tel": "0776-77-2600",
    "latitude": 36.2272222,
    "longitude": 136.1865065
  },
  {
    "label": "道の駅　うみんぴあ大飯",
    "address": "福井県大飯郡おおい町成海１―１―２",
    "postal": "919-2107",
    "tel": "0770-77-4600",
    "latitude": 35.4812687,
    "longitude": 135.6299804
  },
  {
    "label": "西洋菓子倶楽部　米松店",
    "address": "福井県福井市米松１丁目１１―３３",
    "postal": "910-0851",
    "tel": "0776-54-8883",
    "latitude": 36.0658926,
    "longitude": 136.2399535
  },
  {
    "label": "シャト－ン",
    "address": "福井県越前市村国３丁目３５―２",
    "postal": "915-0084",
    "tel": "0778-24-4514",
    "latitude": 35.9135755,
    "longitude": 136.1798065
  },
  {
    "label": "喫茶未完成",
    "address": "福井県敦賀市本町２丁目７―７",
    "postal": "914-0051",
    "tel": "0770-22-2703",
    "latitude": 35.6485223,
    "longitude": 136.0729053
  },
  {
    "label": "ガトー　ケイイチ",
    "address": "福井県福井市木田２丁目1611",
    "postal": "918-8105",
    "tel": "0776-97-6760",
    "latitude": 36.0451976,
    "longitude": 136.2246306
  },
  {
    "label": "武家屋敷旧内山家",
    "address": "福井県大野市城町１０―７",
    "postal": "912-0087",
    "tel": "0779-65-6122",
    "latitude": 35.9856216,
    "longitude": 136.4867139
  },
  {
    "label": "越前竹人形の里",
    "address": "福井県坂井市丸岡町上久米田６３―１",
    "postal": "910-0331",
    "tel": "0776-66-5666",
    "latitude": 36.1082247,
    "longitude": 136.3248327
  },
  {
    "label": "コーヒーの店アマンド",
    "address": "福井県小浜市大手町９―７",
    "postal": "917-0078",
    "tel": "0770-53-1658",
    "latitude": 35.49635130000001,
    "longitude": 135.7450302
  },
  {
    "label": "高浜市場きなーれ",
    "address": "福井県大飯郡高浜町宮崎８６―１―８，７，３",
    "postal": "919-2225",
    "tel": "0770-72-3336",
    "latitude": 35.4873838,
    "longitude": 135.546246
  },
  {
    "label": "焼きたてパン　クリエートハーツ鯖江店",
    "address": "福井県鯖江市小黒町２丁目901",
    "postal": "916-0028",
    "tel": "0778-42-8131",
    "latitude": 35.9513814,
    "longitude": 136.175053
  },
  {
    "label": "潮騒の館やし楼",
    "address": "福井県坂井市三国町安島６４―１",
    "postal": "913-0064",
    "tel": "0776-82-5100",
    "latitude": 36.2370313,
    "longitude": 136.1268162
  },
  {
    "label": "焼きたてパン　クリエート　うみんぴあ大飯店",
    "address": "福井県大飯郡おおい町成海１―８シーサイドスパ１Ｆ",
    "postal": "919-2107",
    "tel": "0770-77-2330",
    "latitude": 35.481583,
    "longitude": 135.631585
  },
  {
    "label": "白和荘喫茶コーナー",
    "address": "福井県あわら市温泉５丁目1201白和荘喫茶コーナー",
    "postal": "910-4104",
    "tel": "0776-78-7000",
    "latitude": 36.228053,
    "longitude": 136.191975
  },
  {
    "label": "観光ホテル",
    "address": "福井県敦賀市川崎町２―８観光ホテルロビー内",
    "postal": "914-0066",
    "tel": "0770-22-0063",
    "latitude": 35.657369,
    "longitude": 136.065131
  },
  {
    "label": "喫茶コーナー",
    "address": "福井県あわら市温泉２丁目205灰屋内喫茶コーナー",
    "postal": "910-4104",
    "tel": "0776-78-5555",
    "latitude": 36.2257198,
    "longitude": 136.1950309
  },
  {
    "label": "福井県陶芸館　茶苑",
    "address": "福井県丹生郡越前町小曽原１２０―６１福井県陶芸館",
    "postal": "916-0273",
    "tel": "0778-32-2279",
    "latitude": 35.934883,
    "longitude": 136.058268
  },
  {
    "label": "井の上",
    "address": "福井県吉田郡永平寺町志比２８―２井の上１Ｆ",
    "postal": "910-1228",
    "tel": "0776-63-3333",
    "latitude": 36.056119,
    "longitude": 136.351124
  },
  {
    "label": "三国観光ホテル喫茶コーナー",
    "address": "福井県坂井市三国町緑ケ丘４丁目４―８三国観光ホテル",
    "postal": "913-0048",
    "tel": "0776-81-3111",
    "latitude": 36.2217325,
    "longitude": 136.1512366
  },
  {
    "label": "手作り菓子工房　ペルシュ",
    "address": "福井県鯖江市神中町２丁目４０７―２",
    "postal": "916-0016",
    "tel": "0778-54-4500",
    "latitude": 35.9712927,
    "longitude": 136.1883345
  },
  {
    "label": "和珈屋",
    "address": "福井県福井市福２丁目1914",
    "postal": "918-8027",
    "tel": "0776-63-5019",
    "latitude": 36.0502851,
    "longitude": 136.1873362
  },
  {
    "label": "グランドホテル喫茶コーナー",
    "address": "福井県あわら市温泉４丁目2",
    "postal": "910-4104",
    "tel": "0776-78-5500",
    "latitude": 36.2248643,
    "longitude": 136.1943837
  },
  {
    "label": "のぼる",
    "address": "福井県坂井市三国町三国東５丁目１―２０イーザ内",
    "postal": "913-0016",
    "tel": "0776-82-3310",
    "latitude": 36.21056,
    "longitude": 136.15922
  },
  {
    "label": "越前松島水族館",
    "address": "福井県坂井市三国町崎７４―２―３越前松島水族館",
    "postal": "913-0065",
    "tel": "0776-81-2700",
    "latitude": 36.252703,
    "longitude": 136.147069
  },
  {
    "label": "福井市愛宕坂茶道美術館",
    "address": "福井県福井市足羽１丁目８―５",
    "postal": "918-8007",
    "tel": "0776-33-3933",
    "latitude": 36.0600119,
    "longitude": 136.2111282
  },
  {
    "label": "通所授産施設「あゆみ」及び生活支援センター「あゆみ」",
    "address": "福井県福井市北山町２２字馬洗１番１",
    "postal": "919-0317",
    "tel": "0776-41-4993",
    "latitude": 36.0039812,
    "longitude": 136.2436807
  },
  {
    "label": "特別養護老人ホーム　眞盛苑",
    "address": "福井県敦賀市莇生野９０―３",
    "postal": "914-0141",
    "tel": "0770-21-6161",
    "latitude": 35.6294765,
    "longitude": 136.0372211
  },
  {
    "label": "山茶花（さざんか）",
    "address": "福井県小浜市小浜白鬚113ホテルせくみ屋１Ｆ",
    "postal": "917-0069",
    "tel": "0770-52-0020",
    "latitude": 35.4958849,
    "longitude": 135.7416604
  },
  {
    "label": "鮎川園地キャンプ場管理棟",
    "address": "福井県福井市鮎川町１３２―小浜４番地",
    "postal": "910-3402",
    "tel": "0776-88-2624",
    "latitude": 35.4955931,
    "longitude": 135.7466439
  },
  {
    "label": "マエダセイカ　羽二重餅の古里",
    "address": "福井県吉田郡永平寺町松岡吉野３５―２１―１",
    "postal": "910-1121",
    "tel": "0776-61-2100",
    "latitude": 36.0805463,
    "longitude": 136.2955906
  },
  {
    "label": "カプセル",
    "address": "福井県福井市文京２丁目５―５０",
    "postal": "910-0017",
    "tel": "0776-28-5373",
    "latitude": 36.0763375,
    "longitude": 136.2161441
  },
  {
    "label": "西勘堂",
    "address": "福井県福井市中央１丁目４―１１",
    "postal": "910-0006",
    "tel": "0776-25-0360",
    "latitude": 36.0620756,
    "longitude": 136.2205133
  },
  {
    "label": "喫茶　観月",
    "address": "福井県あわら市舟津４３―２６グランディア芳泉内",
    "postal": "910-4105",
    "tel": "0776-77-2555",
    "latitude": 36.222103,
    "longitude": 136.188118
  },
  {
    "label": "エスポワ－ル和ん屋",
    "address": "福井県越前市粟田部町３２―１６―１",
    "postal": "915-0242",
    "tel": "0778-42-0417",
    "latitude": 35.9171099,
    "longitude": 136.2428322
  },
  {
    "label": "紫苑",
    "address": "福井県小浜市駅前町７―４",
    "postal": "917-0077",
    "tel": "0770-52-1659",
    "latitude": 35.4925823,
    "longitude": 135.7457301
  },
  {
    "label": "クランデール　二の宮店",
    "address": "福井県福井市二の宮２丁目３―８",
    "postal": "910-0015",
    "tel": "0776-21-8851",
    "latitude": 36.0841477,
    "longitude": 136.2220686
  },
  {
    "label": "ｃａｆｅ　ひこーき",
    "address": "福井県大飯郡高浜町和田１１７―６８",
    "postal": "919-2201",
    "tel": "0770-72-2411",
    "latitude": 35.489892,
    "longitude": 135.5794444
  },
  {
    "label": "北前船主の館　右近家（西洋館）",
    "address": "福井県南条郡南越前町河野２―１５",
    "postal": "915-1111",
    "tel": "0778-48-2196",
    "latitude": 35.8262478,
    "longitude": 136.0682481
  },
  {
    "label": "御菓子処　うさぎや",
    "address": "福井県鯖江市持明寺町５―１０―１",
    "postal": "916-0071",
    "tel": "0778-62-0861",
    "latitude": 35.9635901,
    "longitude": 136.147619
  },
  {
    "label": "西洋菓子倶楽部丸岡店",
    "address": "福井県坂井市丸岡町西里丸岡３―４５",
    "postal": "910-0242",
    "tel": "0776-67-2227",
    "latitude": 36.152714,
    "longitude": 136.2660326
  },
  {
    "label": "Ｎｅｏ　Ａｍａｚｏｒｉｃａ",
    "address": "福井県小浜市小浜塩竈４５―５",
    "postal": "917-0086",
    "tel": "0770-52-3005",
    "latitude": 35.4982761,
    "longitude": 135.7414721
  },
  {
    "label": "カフェ　アルカンシェル",
    "address": "福井県小浜市府中８号麻ヶ瀬２３",
    "postal": "917-0023",
    "tel": "0770-52-3341",
    "latitude": 35.4947071,
    "longitude": 135.7563597
  },
  {
    "label": "コミュニティカフェいっぷくや",
    "address": "福井県大飯郡高浜町宮崎６７―４―１瑞祥苑内",
    "postal": "919-2225",
    "tel": "0770-72-5053",
    "latitude": 35.48842,
    "longitude": 135.551684
  },
  {
    "label": "喫茶花時計",
    "address": "福井県敦賀市古田刈１８―５―１",
    "postal": "914-0045",
    "tel": "0770-22-1375",
    "latitude": 35.6330541,
    "longitude": 136.0642373
  },
  {
    "label": "ジョイフル",
    "address": "福井県坂井市丸岡町寅国４―３４―１",
    "postal": "910-0351",
    "tel": "0776-66-2464",
    "latitude": 36.1415766,
    "longitude": 136.2694132
  },
  {
    "label": "ジェームス福井大和田店",
    "address": "福井県福井市大和田１丁目410ジェームス福井大和田店",
    "postal": "910-0836",
    "tel": "0776-57-1291",
    "latitude": 36.0937927,
    "longitude": 136.2497139
  },
  {
    "label": "三愛",
    "address": "福井県大野市本町３―１９",
    "postal": "912-0025",
    "tel": "0779-65-0361",
    "latitude": 35.9864909,
    "longitude": 136.4881915
  },
  {
    "label": "喫茶店　水芭蕉",
    "address": "福井県大野市角野１４―３",
    "postal": "912-0217",
    "tel": "0779-78-2326",
    "latitude": 35.8984459,
    "longitude": 136.6532022
  },
  {
    "label": "喫茶　もんじゅ",
    "address": "福井県福井市下六条町１６―１５福井県中小企業産業大学校内１Ｆ",
    "postal": "918-8135",
    "tel": "0776-41-3775",
    "latitude": 36.035817,
    "longitude": 136.230625
  },
  {
    "label": "果汁工房　果琳",
    "address": "福井県福井市大和田２丁目1230アピタ福井大和田店１Ｆ",
    "postal": "910-0836",
    "tel": "0776-57-2211",
    "latitude": 36.0966063,
    "longitude": 136.2507999
  },
  {
    "label": "越麺屋",
    "address": "福井県福井市黒丸町１４―４８―１",
    "postal": "910-0052",
    "tel": "0776-89-1825",
    "latitude": 36.1002486,
    "longitude": 136.1954001
  },
  {
    "label": "センチュリオンホテル　リゾート＆スパ　テクノポート福井　シーズ",
    "address": "福井県坂井市三国町黒目２２―５１―２ＣＥＮＴＵＲＩＯＮＨＯＴＥＬＲＥＳＯＲＴ＆ＳＰＡＴＥＣＨＮＯＰＯＲＴＦＵＫＵＩ１Ｆ",
    "postal": "913-0037",
    "tel": "0776-81-7000",
    "latitude": 36.189638,
    "longitude": 136.1340475
  },
  {
    "label": "㈱御素麺屋　松本店",
    "address": "福井県福井市松本３丁目２―１２",
    "postal": "910-0003",
    "tel": "0776-23-3272",
    "latitude": 36.0710994,
    "longitude": 136.223682
  },
  {
    "label": "福井県国際交流会館　喫茶部",
    "address": "福井県福井市宝永３丁目１―１福井県国際交流会館１Ｆ",
    "postal": "910-0004",
    "tel": "0776-28-8800",
    "latitude": 36.0674269,
    "longitude": 136.2254425
  },
  {
    "label": "ふくてつ問屋ステーション",
    "address": "福井県越前市小野谷町４字３―１７",
    "postal": "915-0054",
    "tel": "0778-24-3255",
    "latitude": 35.8874955,
    "longitude": 136.1872205
  },
  {
    "label": "アプローチ",
    "address": "福井県小浜市青井８―４―１",
    "postal": "917-0041",
    "tel": "0770-53-3555",
    "latitude": 35.4882909,
    "longitude": 135.7299815
  },
  {
    "label": "敦賀きらめき温泉　リラ・ポート　１階ロビー",
    "address": "福井県敦賀市高野９１―９―３",
    "postal": "914-0022",
    "tel": "0770-24-1126",
    "latitude": 35.643979,
    "longitude": 136.0969219
  },
  {
    "label": "㈱清風荘",
    "address": "福井県あわら市温泉３丁目803",
    "postal": "910-4104",
    "tel": "0776-77-2500",
    "latitude": 36.22342,
    "longitude": 136.1910729
  },
  {
    "label": "Ｔａｒｔｅ　ｔａｒｔｅ（タルトタルト）",
    "address": "福井県越前市北府３丁目１―２",
    "postal": "915-0802",
    "tel": "0778-21-3807",
    "latitude": 35.9093172,
    "longitude": 136.1649302
  },
  {
    "label": "みどり館",
    "address": "福井県敦賀市鉄輪町２丁目２―３",
    "postal": "914-0055",
    "tel": "0770-22-5742",
    "latitude": 35.6458753,
    "longitude": 136.0732609
  },
  {
    "label": "海のホテルひろせ",
    "address": "福井県三方郡美浜町久々子２―５―２",
    "postal": "919-1123",
    "tel": "0770-32-0001",
    "latitude": 35.610126,
    "longitude": 135.9116477
  },
  {
    "label": "㈲　伊勢屋",
    "address": "福井県小浜市一番町１―６",
    "postal": "917-0071",
    "tel": "0770-52-0766",
    "latitude": 35.4997704,
    "longitude": 135.7460439
  },
  {
    "label": "㈱お茶の清香園",
    "address": "福井県敦賀市神楽町１丁目１―８",
    "postal": "914-0063",
    "tel": "0770-22-0753",
    "latitude": 35.654369,
    "longitude": 136.0724552
  },
  {
    "label": "㈲香月",
    "address": "福井県福井市大和田１丁目101",
    "postal": "910-0836",
    "tel": "0776-53-2070",
    "latitude": 36.0900374,
    "longitude": 136.2474779
  },
  {
    "label": "㈱そごう・西武　西武福井店　本館地下１階",
    "address": "福井県福井市中央１丁目８―１西武福井店本館Ｂ１",
    "postal": "910-0006",
    "tel": "0776-28-8200",
    "latitude": 36.0618571,
    "longitude": 136.2190631
  },
  {
    "label": "アグリランド　喜ね舎　愛菜館",
    "address": "福井県福井市河増町9ｰ10ｰ1",
    "postal": "918-8218",
    "tel": "0776-52-8311",
    "latitude": 36.0652297,
    "longitude": 136.2564386
  },
  {
    "label": "おみやげ処芦原",
    "address": "福井県あわら市春宮1丁目12ｰ15芦原温泉駅構内",
    "postal": "919-0632",
    "tel": "0776-73-1029",
    "latitude": 36.2145546,
    "longitude": 136.2350145
  }
]
