[
  {
    "label": "ＦＡ介護タクシー",
    "postal": "916-0064",
    "locality": "鯖江市",
    "address": "福井県鯖江市下司町１９－６",
    "tel": [
      "0800-300-0880"
    ],
    "url": "http://fa-kanko.com/",
    "latitude": 35.9402164,
    "longitude": 136.1726396
  },
  {
    "label": "ＹＡＫＵＲＡＴＡＸＩ",
    "postal": "918-8017",
    "locality": "福井市",
    "address": "福井県福井市下荒井町１５－１１５",
    "tel": [
      "0776-38-3593"
    ],
    "latitude": 36.0232777,
    "longitude": 136.2046885
  },
  {
    "label": "あいタクシー",
    "postal": "918-8181",
    "locality": "福井市",
    "address": "福井県福井市浅水町１３４－３－２",
    "tel": [
      "0776-38-3355"
    ],
    "latitude": 35.9996776,
    "longitude": 136.1966569
  },
  {
    "label": "アイネス観光株式会社",
    "postal": "918-8032",
    "locality": "福井市",
    "address": "福井県福井市南江守町６０",
    "tel": [
      "0120-932889",
      "0776-89-1135"
    ],
    "latitude": 36.0264545,
    "longitude": 136.1803932
  },
  {
    "label": "あいぼう介護タクシー",
    "postal": "910-0027",
    "locality": "福井市",
    "address": "福井県福井市豊岡１丁目１３－７",
    "tel": [
      "0776-97-8659"
    ],
    "latitude": 36.0694272,
    "longitude": 136.1909275
  },
  {
    "label": "あい介護タクシー",
    "postal": "916-0074",
    "locality": "鯖江市",
    "address": "福井県鯖江市上野田町４－１－１",
    "tel": [
      "0778-62-4477"
    ],
    "latitude": 35.943243,
    "longitude": 136.1481197
  },
  {
    "label": "あかりタクシー",
    "postal": "910-0806",
    "locality": "福井市",
    "address": "福井県福井市高木町２３－３－１",
    "tel": [
      "0120-157535",
      "0776-52-7070"
    ],
    "url": "http://akarikanko.com/",
    "email": "akari@dune.ocn.ne.jp",
    "latitude": 36.0927804,
    "longitude": 136.2292655
  },
  {
    "label": "アサヒタクシー株式会社",
    "postal": "916-0146",
    "locality": "越前町",
    "address": "福井県丹生郡越前町朝日１－６－７",
    "tel": [
      "0778-34-0037"
    ],
    "latitude": 35.9729638,
    "longitude": 136.1313674
  },
  {
    "label": "あさひ介護タクシー",
    "postal": "910-0857",
    "locality": "福井市",
    "address": "福井県福井市豊島２丁目６－１",
    "tel": [
      "0776-76-5341"
    ],
    "latitude": 36.057743,
    "longitude": 136.2236661
  },
  {
    "label": "あわら観光株式会社",
    "postal": "919-0621",
    "locality": "あわら市",
    "address": "福井県あわら市市姫５丁目１７－２０",
    "tel": [
      "0776-73-3333",
      "0120-073000"
    ],
    "url": "http://www.kintaku.com",
    "email": "k@kintaku.com",
    "latitude": 36.200607,
    "longitude": 136.2313006
  },
  {
    "label": "あわら市乗合タクシー予約センター",
    "postal": "910-4103",
    "locality": "あわら市",
    "address": "福井県あわら市二面３４－４－８",
    "tel": [
      "0120-548928"
    ],
    "latitude": 36.2246338,
    "longitude": 136.1950614
  },
  {
    "label": "いずみタクシー合名会社",
    "postal": "912-0205",
    "locality": "大野市",
    "address": "福井県大野市朝日１６－７－４",
    "tel": [
      "0779-78-2022"
    ],
    "fax": "0779-78-2028",
    "latitude": 35.9056314,
    "longitude": 136.666609
  },
  {
    "label": "ウェルネス介護サポート株式会社",
    "postal": "918-8026",
    "locality": "福井市",
    "address": "福井県福井市渕４丁目１８２０",
    "tel": [
      "0120-593119",
      "0776-33-2399"
    ],
    "url": "http://www.wellnes.jp/hanso/\nhttp://www.wellness-group.co.jp",
    "email": "info@wellness-group.co.jp",
    "latitude": 36.0460271,
    "longitude": 136.1827785
  },
  {
    "label": "おさんぽケアサポートタクシー",
    "postal": "914-0025",
    "locality": "敦賀市",
    "address": "福井県敦賀市樋ノ水町３３－１",
    "tel": [
      "0120-088954"
    ],
    "latitude": 35.637068,
    "longitude": 136.0782994
  },
  {
    "label": "おでかけサポーターエンゼル",
    "postal": "910-0027",
    "locality": "福井市",
    "address": "福井県福井市豊岡１丁目９－３",
    "tel": [
      "0776-97-8658"
    ],
    "latitude": 36.0680913,
    "longitude": 136.191358
  },
  {
    "label": "グローブ２１",
    "postal": "919-0418",
    "locality": "坂井市",
    "address": "福井県坂井市春江町江留下高道１６６",
    "tel": [
      "0776-51-1400"
    ],
    "latitude": 36.1293013,
    "longitude": 136.2178606
  },
  {
    "label": "ケイカン交通株式会社／タクシー配車センター",
    "postal": "910-4103",
    "locality": "あわら市",
    "address": "福井県あわら市二面３４－４－８",
    "tel": [
      "0776-77-2444",
      "0120-112444"
    ],
    "url": "http://www.keikan-koutsu.jp/",
    "latitude": 36.2246338,
    "longitude": 136.1950614
  },
  {
    "label": "ケイカン交通株式会社／本社事務所",
    "postal": "910-4103",
    "locality": "あわら市",
    "address": "福井県あわら市二面３４－１７－６",
    "tel": [
      "0776-77-2432"
    ],
    "latitude": 36.223434,
    "longitude": 136.1950198
  },
  {
    "label": "ケイカン交通株式会社観光・送迎バス",
    "postal": "910-4103",
    "locality": "あわら市",
    "address": "福井県あわら市二面３４－４－８",
    "tel": [
      "0776-78-6234"
    ],
    "latitude": 36.2246338,
    "longitude": 136.1950614
  },
  {
    "label": "げんき介護ＴＡＸＩ",
    "postal": "910-3604",
    "locality": "福井市",
    "address": "福井県福井市グリーンハイツ９丁目１３２",
    "tel": [
      "0776-98-2074"
    ],
    "latitude": 36.039994,
    "longitude": 136.1661638
  },
  {
    "label": "さくらんぼ介護株式会社",
    "postal": "919-1207",
    "locality": "美浜町",
    "address": "福井県三方郡美浜町山上５３－２１",
    "tel": [
      "0770-37-2650"
    ],
    "latitude": 35.6183417,
    "longitude": 135.9743067
  },
  {
    "label": "さばえ交通介護タクシー",
    "postal": "916-0087",
    "locality": "鯖江市",
    "address": "福井県鯖江市田村町３－４",
    "tel": [
      "0778-62-3656"
    ],
    "latitude": 35.9669702,
    "longitude": 136.145758
  },
  {
    "label": "サンサン介護タクシー",
    "postal": "916-0018",
    "locality": "鯖江市",
    "address": "福井県鯖江市幸町２丁目６－１１",
    "tel": [
      "0778-29-3152",
      "0778-29-3351"
    ],
    "latitude": 35.9777027,
    "longitude": 136.1793016
  },
  {
    "label": "しろはと交通株式会社福井営業所",
    "postal": "918-8114",
    "locality": "福井市",
    "address": "福井県福井市羽水１丁目７０２",
    "tel": [
      "0776-34-3939"
    ],
    "fax": "0776-36-4602",
    "latitude": 36.0412288,
    "longitude": 136.2315305
  },
  {
    "label": "しろはと交通株式会社本社",
    "postal": "919-0473",
    "locality": "坂井市",
    "address": "福井県坂井市春江町本堂２７",
    "tel": [
      "0120-932810",
      "0776-58-2810"
    ],
    "fax": "0776-58-2820",
    "latitude": 36.1390193,
    "longitude": 136.2031648
  },
  {
    "label": "すいせんタクシー株式会社",
    "postal": "918-8239",
    "locality": "福井市",
    "address": "福井県福井市成和１丁目２６０６",
    "tel": [
      "0776-26-3515"
    ],
    "latitude": 36.0535276,
    "longitude": 136.2444401
  },
  {
    "label": "セイホーケアサービス",
    "postal": "914-0062",
    "locality": "敦賀市",
    "address": "福井県敦賀市相生町２１－３１",
    "tel": [
      "0770-24-0018"
    ],
    "latitude": 35.6543411,
    "longitude": 136.0671586
  },
  {
    "label": "セイホー介護タクシー",
    "postal": "914-0062",
    "locality": "敦賀市",
    "address": "福井県敦賀市相生町２１－３１",
    "tel": [
      "0770-24-0017"
    ],
    "fax": "0770-25-8081",
    "url": "http://hp.kaipoke.biz/gag/",
    "latitude": 35.6543411,
    "longitude": 136.0671586
  },
  {
    "label": "たかの介護タクシー",
    "postal": "919-0533",
    "locality": "坂井市",
    "address": "福井県坂井市坂井町木部東１５－４１",
    "tel": [
      "0776-72-1702"
    ],
    "latitude": 36.1792911,
    "longitude": 136.1829229
  },
  {
    "label": "はとタクシー／配車センター",
    "postal": "918-8114",
    "locality": "福井市",
    "address": "福井県福井市羽水１丁目７０２",
    "tel": [
      "0120-037700",
      "0776-35-8100",
      "0776-34-3322",
      "0776-36-4600"
    ],
    "latitude": 36.0412288,
    "longitude": 136.2315305
  },
  {
    "label": "ヘルパーステーションマミー",
    "postal": "910-1117",
    "locality": "永平寺町",
    "address": "福井県吉田郡永平寺町松岡神明３丁目９８",
    "tel": [
      "0776-61-1676"
    ],
    "latitude": 36.0921398,
    "longitude": 136.3009978
  },
  {
    "label": "むつみ介護タクシー",
    "postal": "919-1316",
    "locality": "若狭町",
    "address": "福井県三方上中郡若狭町井崎４０－３",
    "tel": [
      "0770-45-2631"
    ],
    "latitude": 35.5161553,
    "longitude": 135.8974858
  },
  {
    "label": "ヤマトタクシー株式会社",
    "postal": "915-0242",
    "locality": "越前市",
    "address": "福井県越前市粟田部町３５－４－１２",
    "tel": [
      "0778-42-0860"
    ],
    "fax": "0778-42-1894",
    "latitude": 35.9176543,
    "longitude": 136.2465151
  },
  {
    "label": "ゆうあい介護タクシー大願寺",
    "postal": "910-0001",
    "locality": "福井市",
    "address": "福井県福井市大願寺３丁目９－３",
    "tel": [
      "0776-27-0020"
    ],
    "latitude": 36.0843619,
    "longitude": 136.2283126
  },
  {
    "label": "ゆう介護タクシー",
    "postal": "916-1112",
    "locality": "鯖江市",
    "address": "福井県鯖江市中戸口町１５－３６",
    "tel": [
      "0778-77-2460"
    ],
    "latitude": 35.9609017,
    "longitude": 136.2491941
  },
  {
    "label": "ワカサ交通株式会社",
    "postal": "919-2111",
    "locality": "おおい町",
    "address": "福井県大飯郡おおい町本郷１５３－１－８",
    "tel": [
      "0770-77-0111"
    ],
    "fax": "0770-77-1423",
    "latitude": 35.4824795,
    "longitude": 135.6197282
  },
  {
    "label": "芦原温泉タクシー",
    "postal": "910-4104",
    "locality": "あわら市",
    "address": "福井県あわら市温泉４丁目９１８",
    "tel": [
      "0776-77-2341"
    ],
    "latitude": 36.2257169,
    "longitude": 136.1920755
  },
  {
    "label": "永平寺観光株式会社タクシー事業部",
    "postal": "910-0823",
    "locality": "福井市",
    "address": "福井県福井市重立町１７－２５－１",
    "tel": [
      "0120-203425"
    ],
    "latitude": 36.0840899,
    "longitude": 136.2866167
  },
  {
    "label": "永平寺観光株式会社タクシー事業部／予約配車センター",
    "postal": "910-0823",
    "locality": "福井市",
    "address": "福井県福井市重立町１７－２５－１",
    "tel": [
      "0776-53-3425"
    ],
    "latitude": 36.0840899,
    "longitude": 136.2866167
  },
  {
    "label": "永平寺交通",
    "postal": "910-1226",
    "locality": "永平寺町",
    "address": "福井県吉田郡永平寺町市野々５－２",
    "tel": [
      "0776-63-3223"
    ],
    "latitude": 36.067152,
    "longitude": 136.329339
  },
  {
    "label": "越前タクシー",
    "postal": "916-0421",
    "locality": "越前町",
    "address": "福井県丹生郡越前町道口８－４３",
    "tel": [
      "0778-37-1239"
    ],
    "fax": "0778-37-0065",
    "latitude": 35.9331365,
    "longitude": 135.9987075
  },
  {
    "label": "奥越すまいる",
    "postal": "912-0043",
    "locality": "大野市",
    "address": "福井県大野市国時町１０３",
    "tel": [
      "0779-66-1414"
    ],
    "email": "kcco103@kore.mitene.or.jp",
    "latitude": 35.976654,
    "longitude": 136.5034397
  },
  {
    "label": "介護センター愛（一般社団法人）",
    "postal": "912-0405",
    "locality": "大野市",
    "address": "福井県大野市森政地頭１１－１６",
    "tel": [
      "0779-64-1183"
    ],
    "latitude": 35.9587235,
    "longitude": 136.5225766
  },
  {
    "label": "介護タクシー・ケアふくい株式会社",
    "postal": "910-1118",
    "locality": "永平寺町",
    "address": "福井県吉田郡永平寺町松岡薬師１丁目１４５",
    "tel": [
      "0776-61-0216"
    ],
    "latitude": 36.0962396,
    "longitude": 136.3059553
  },
  {
    "label": "介護タクシーあゆみ",
    "postal": "918-8003",
    "locality": "福井市",
    "address": "福井県福井市毛矢２丁目１１－１１",
    "tel": [
      "0776-63-5577"
    ],
    "latitude": 36.0556653,
    "longitude": 136.2138782
  },
  {
    "label": "介護タクシーうえだ",
    "postal": "918-8076",
    "locality": "福井市",
    "address": "福井県福井市本堂町３７－１－５１",
    "tel": [
      "0776-37-0740"
    ],
    "latitude": 36.0511951,
    "longitude": 136.1283842
  },
  {
    "label": "介護タクシーひまわり",
    "postal": "912-0036",
    "locality": "大野市",
    "address": "福井県大野市美川町４－６",
    "tel": [
      "0779-69-1272"
    ],
    "latitude": 35.9874632,
    "longitude": 136.495349
  },
  {
    "label": "介護タクシーみそみ",
    "postal": "919-1324",
    "locality": "若狭町",
    "address": "福井県三方上中郡若狭町白屋２８－１３－１",
    "tel": [
      "0770-45-2959"
    ],
    "latitude": 35.4969016,
    "longitude": 135.8936113
  },
  {
    "label": "海津屋交通",
    "postal": "919-0477",
    "locality": "坂井市",
    "address": "福井県坂井市春江町田端３４－１－７",
    "tel": [
      "0776-51-0308"
    ],
    "latitude": 36.1351779,
    "longitude": 136.1972434
  },
  {
    "label": "海陸タクシー",
    "postal": "914-0046",
    "locality": "敦賀市",
    "address": "福井県敦賀市長沢６－２－２",
    "tel": [
      "0120-818355",
      "0770-22-3123"
    ],
    "latitude": 35.6374094,
    "longitude": 136.0709309
  },
  {
    "label": "株式会社Ｍ＆Ｋ介護タクシー",
    "postal": "918-8051",
    "locality": "福井市",
    "address": "福井県福井市桃園１丁目２－１４",
    "tel": [
      "0776-33-0668"
    ],
    "fax": "0776-33-0578",
    "latitude": 36.0613728,
    "longitude": 136.2025291
  },
  {
    "label": "株式会社アイメル／福祉タクシー",
    "postal": "910-0832",
    "locality": "福井市",
    "address": "福井県福井市新保町３８－１",
    "tel": [
      "0776-57-0277"
    ],
    "url": "http://www.aimelfukui.jp/",
    "latitude": 36.0828583,
    "longitude": 136.258416
  },
  {
    "label": "株式会社ケア・サービス・アイ",
    "postal": "914-0052",
    "locality": "敦賀市",
    "address": "福井県敦賀市清水町１丁目６－５",
    "tel": [
      "0120-315294",
      "0770-21-0052"
    ],
    "fax": "0770-21-0385",
    "latitude": 35.6510084,
    "longitude": 136.0781796
  },
  {
    "label": "株式会社サンキュー・タクシー",
    "postal": "914-0056",
    "locality": "敦賀市",
    "address": "福井県敦賀市神楽２－５－１０",
    "tel": [
      "0120-075039"
    ],
    "latitude": 35.653119,
    "longitude": 136.0676308
  },
  {
    "label": "株式会社サンキュー・タクシー",
    "postal": "914-0063",
    "locality": "敦賀市",
    "address": "福井県敦賀市神楽町２丁目５－１０",
    "tel": [
      "0770-23-0039"
    ],
    "latitude": 35.653119,
    "longitude": 136.0676308
  },
  {
    "label": "株式会社らくらくサポート",
    "postal": "910-0374",
    "locality": "坂井市",
    "address": "福井県坂井市丸岡町北横地１丁目４４",
    "tel": [
      "0120-967487",
      "0776-67-5772"
    ],
    "latitude": 36.1298609,
    "longitude": 136.2555459
  },
  {
    "label": "株式会社丸越タクシー",
    "postal": "915-0071",
    "locality": "越前市",
    "address": "福井県越前市府中１丁目４－３５",
    "tel": [
      "0778-22-0700",
      "0120-220700"
    ],
    "fax": "0778-22-6200",
    "latitude": 35.9028903,
    "longitude": 136.1693633
  },
  {
    "label": "株式会社金津相互タクシー",
    "postal": "919-0632",
    "locality": "あわら市",
    "address": "福井県あわら市春宮１丁目１３－３",
    "tel": [
      "0776-73-0555",
      "0120-730554"
    ],
    "fax": "0776-73-0558",
    "url": "http://www.kanazu-sougo.com/",
    "email": "fumito@sr.incl.ne.jp",
    "latitude": 36.2157664,
    "longitude": 136.234333
  },
  {
    "label": "株式会社福福交通",
    "postal": "910-0016",
    "locality": "福井市",
    "address": "福井県福井市大宮４丁目１１－１",
    "tel": [
      "0120-888039",
      "0776-22-8880"
    ],
    "latitude": 36.0818646,
    "longitude": 136.2088952
  },
  {
    "label": "丸岡介護タクシー",
    "postal": "910-0317",
    "locality": "坂井市",
    "address": "福井県坂井市丸岡町石上２－１１",
    "tel": [
      "0776-66-0145"
    ],
    "latitude": 36.1475457,
    "longitude": 136.2818811
  },
  {
    "label": "吉川タクシー",
    "postal": "918-8076",
    "locality": "福井市",
    "address": "福井県福井市本堂町３５－１－３１",
    "tel": [
      "0776-37-1391"
    ],
    "latitude": 36.05222,
    "longitude": 136.1273121
  },
  {
    "label": "京福グループ福井交通株式会社／配車センター",
    "postal": "910-0845",
    "locality": "福井市",
    "address": "福井県福井市志比口３丁目１－７",
    "tel": [
      "0776-23-0108"
    ],
    "fax": "0776-43-9168",
    "latitude": 36.0717555,
    "longitude": 136.233937
  },
  {
    "label": "京福グループ福井交通株式会社／麻生津営業所",
    "postal": "918-8181",
    "locality": "福井市",
    "address": "福井県福井市浅水町１０３－２９",
    "tel": [
      "0776-38-1311"
    ],
    "latitude": 36.0062602,
    "longitude": 136.2001675
  },
  {
    "label": "金津サンホーム障害者支援施設",
    "postal": "919-0633",
    "locality": "あわら市",
    "address": "福井県あわら市花乃杜３丁目２２－１２",
    "tel": [
      "0776-73-5033"
    ],
    "url": "http://www.ksunhome.or.jp/",
    "email": "ksunhome@mitene.or.jp",
    "latitude": 36.2222738,
    "longitude": 136.2236284
  },
  {
    "label": "光タクシー有限会社本社",
    "postal": "910-0024",
    "locality": "福井市",
    "address": "福井県福井市照手４丁目１７－１２",
    "tel": [
      "0776-22-2288"
    ],
    "latitude": 36.0681996,
    "longitude": 136.2045565
  },
  {
    "label": "高浜交通株式会社",
    "postal": "919-2225",
    "locality": "高浜町",
    "address": "福井県大飯郡高浜町宮崎８６－１４－５",
    "tel": [
      "0770-72-0247"
    ],
    "fax": "0770-72-0323",
    "latitude": 35.4869255,
    "longitude": 135.5473043
  },
  {
    "label": "高木タクシー",
    "postal": "918-8026",
    "locality": "福井市",
    "address": "福井県福井市渕町２７－４０５",
    "tel": [
      "0776-36-5369"
    ],
    "latitude": 36.0406864,
    "longitude": 136.1948661
  },
  {
    "label": "合資会社ケアサポート花水木介護タクシー",
    "postal": "911-0816",
    "locality": "勝山市",
    "address": "福井県勝山市毛屋町７１０",
    "tel": [
      "0779-88-2477"
    ],
    "fax": "0779-88-2476",
    "latitude": 36.0467525,
    "longitude": 136.509192
  },
  {
    "label": "鯖江タクシー株式会社／事務所",
    "postal": "916-0026",
    "locality": "鯖江市",
    "address": "福井県鯖江市本町１丁目２－１０",
    "tel": [
      "0778-51-2824"
    ],
    "fax": "0778-51-2824",
    "latitude": 35.9451771,
    "longitude": 136.1854856
  },
  {
    "label": "鯖江タクシー株式会社／神明営業所",
    "postal": "916-0026",
    "locality": "鯖江市",
    "address": "福井県鯖江市本町１丁目２－１０",
    "tel": [
      "0778-51-1008"
    ],
    "latitude": 35.9451771,
    "longitude": 136.1854856
  },
  {
    "label": "鯖江タクシー株式会社／本社営業所",
    "postal": "916-0026",
    "locality": "鯖江市",
    "address": "福井県鯖江市本町１丁目２－１０",
    "tel": [
      "0120-512822",
      "0778-51-2822"
    ],
    "latitude": 35.9451771,
    "longitude": 136.1854856
  },
  {
    "label": "三栄タクシー有限会社",
    "postal": "910-0015",
    "locality": "福井市",
    "address": "福井県福井市二の宮１丁目１６－１",
    "tel": [
      "0120-181823",
      "0776-23-2534",
      "0776-22-4100"
    ],
    "latitude": 36.0886725,
    "longitude": 136.2283961
  },
  {
    "label": "三栄タクシー有限会社／修理部",
    "postal": "910-0015",
    "locality": "福井市",
    "address": "福井県福井市二の宮１丁目１６－１",
    "tel": [
      "0776-23-2683"
    ],
    "latitude": 36.0886725,
    "longitude": 136.2283961
  },
  {
    "label": "三福タクシー株式会社",
    "postal": "917-0072",
    "locality": "小浜市",
    "address": "福井県小浜市千種２丁目１－１３",
    "tel": [
      "0770-52-1414"
    ],
    "fax": "0770-52-3800",
    "url": "http://www.mifuku.jp",
    "email": "info@mifuku.jp",
    "latitude": 35.4994871,
    "longitude": 135.747441
  },
  {
    "label": "山海交通株式会社",
    "postal": "916-0215",
    "locality": "越前町",
    "address": "福井県丹生郡越前町織田１１１－１０－１",
    "tel": [
      "0778-36-0010"
    ],
    "fax": "0778-36-0020",
    "latitude": 35.9556971,
    "longitude": 136.052465
  },
  {
    "label": "市姫タクシー",
    "postal": "919-0621",
    "locality": "あわら市",
    "address": "福井県あわら市市姫４丁目１９－１１",
    "tel": [
      "0776-73-3089"
    ],
    "latitude": 36.206684,
    "longitude": 136.2340001
  },
  {
    "label": "春江タクシー有限会社",
    "postal": "919-0454",
    "locality": "坂井市",
    "address": "福井県坂井市春江町江留上日の出２－３",
    "tel": [
      "0120-510818",
      "0776-51-0213"
    ],
    "latitude": 36.1222717,
    "longitude": 136.2272321
  },
  {
    "label": "勝山タクシー株式会社",
    "postal": "911-0034",
    "locality": "勝山市",
    "address": "福井県勝山市滝波町４丁目１０１",
    "tel": [
      "0779-88-0019"
    ],
    "fax": "0779-88-3733",
    "latitude": 36.0744347,
    "longitude": 136.4898539
  },
  {
    "label": "勝山タクシー株式会社",
    "postal": "911-0034",
    "locality": "勝山市",
    "address": "福井県勝山市滝波町４丁目７０７",
    "tel": [
      "0779-88-0251"
    ],
    "latitude": 36.07131,
    "longitude": 136.4869349
  },
  {
    "label": "小松タクシー有限会社",
    "postal": "915-0816",
    "locality": "越前市",
    "address": "福井県越前市小松１丁目４－７",
    "tel": [
      "0778-22-0585",
      "0120-220585"
    ],
    "fax": "0778-23-0585",
    "latitude": 35.9038037,
    "longitude": 136.1567754
  },
  {
    "label": "小浜交通",
    "postal": "917-0072",
    "locality": "小浜市",
    "address": "福井県小浜市千種２丁目１－１３",
    "tel": [
      "0770-52-5555"
    ],
    "latitude": 35.4994871,
    "longitude": 135.747441
  },
  {
    "label": "松岡交通株式会社",
    "postal": "910-1117",
    "locality": "永平寺町",
    "address": "福井県吉田郡永平寺町松岡神明３丁目９２",
    "tel": [
      "0120-717580",
      "0776-61-0580"
    ],
    "fax": "0776-61-0588",
    "latitude": 36.0918842,
    "longitude": 136.3003201
  },
  {
    "label": "相互タクシー株式会社",
    "postal": "916-0027",
    "locality": "鯖江市",
    "address": "福井県鯖江市桜町３丁目１－１",
    "tel": [
      "0120-520238",
      "0778-51-0238",
      "0778-51-1154",
      "0778-51-0744"
    ],
    "fax": "0778-51-0744",
    "latitude": 35.946924,
    "longitude": 136.1832052
  },
  {
    "label": "相馬タクシー／神明営業所",
    "postal": "916-0023",
    "locality": "鯖江市",
    "address": "福井県鯖江市神明３－９－１３",
    "tel": [
      "0778-52-7070"
    ],
    "latitude": 35.9761058,
    "longitude": 136.1816292
  },
  {
    "label": "相馬タクシー／本社",
    "postal": "916-0023",
    "locality": "鯖江市",
    "address": "福井県鯖江市西山町１－２",
    "tel": [
      "0120-510559",
      "0778-51-0559"
    ],
    "latitude": 35.9526759,
    "longitude": 136.18323
  },
  {
    "label": "泰夢里タクシー",
    "postal": "919-0315",
    "locality": "福井市",
    "address": "福井県福井市西袋町１０－９－１",
    "tel": [
      "0776-41-3911"
    ],
    "latitude": 35.9935911,
    "longitude": 136.243772
  },
  {
    "label": "大喜タクシー",
    "postal": "912-0084",
    "locality": "大野市",
    "address": "福井県大野市天神町３－２２",
    "tel": [
      "0120-217139",
      "0779-66-2171"
    ],
    "latitude": 35.9793975,
    "longitude": 136.4883359
  },
  {
    "label": "大喜タクシー／事務所",
    "postal": "912-0084",
    "locality": "大野市",
    "address": "福井県大野市天神町３－２２",
    "tel": [
      "0779-66-2980"
    ],
    "fax": "0779-66-2980",
    "latitude": 35.9793975,
    "longitude": 136.4883359
  },
  {
    "label": "大福タクシー",
    "postal": "911-0815",
    "locality": "勝山市",
    "address": "福井県勝山市下高島１２－１－１",
    "tel": [
      "0120-891331",
      "0779-88-1331"
    ],
    "fax": "0779-88-2524",
    "latitude": 36.0473689,
    "longitude": 136.5039842
  },
  {
    "label": "大野タクシー",
    "postal": "912-0052",
    "locality": "大野市",
    "address": "福井県大野市弥生町１－１４",
    "tel": [
      "0120-255211",
      "0779-66-2225"
    ],
    "fax": "0779-65-2225",
    "latitude": 35.9826445,
    "longitude": 136.4967016
  },
  {
    "label": "大和交通株式会社",
    "postal": "917-0241",
    "locality": "小浜市",
    "address": "福井県小浜市遠敷８丁目５０２－１２",
    "tel": [
      "0770-56-3333"
    ],
    "fax": "0770-56-1061",
    "url": "http://daiwaobama.co.jp",
    "email": "daiwa@daiwaobama.co.jp",
    "latitude": 35.4830369,
    "longitude": 135.775828
  },
  {
    "label": "大和交通株式会社／貸切バス・事務所専用",
    "postal": "917-0241",
    "locality": "小浜市",
    "address": "福井県小浜市遠敷８丁目５０２－１２",
    "tel": [
      "0770-56-5555"
    ],
    "latitude": 35.4830369,
    "longitude": 135.775828
  },
  {
    "label": "大和交通株式会社上中営業所",
    "postal": "919-1536",
    "locality": "若狭町",
    "address": "福井県三方上中郡若狭町三宅９２－８－１",
    "tel": [
      "0770-62-0117"
    ],
    "latitude": 35.4626573,
    "longitude": 135.8585359
  },
  {
    "label": "大和交通株式会社名田庄営業所",
    "postal": "917-0381",
    "locality": "おおい町",
    "address": "福井県大飯郡おおい町名田庄三重３２－４８－１",
    "tel": [
      "0770-67-3393"
    ],
    "fax": "0770-67-3391",
    "latitude": 35.4091966,
    "longitude": 135.683945
  },
  {
    "label": "中井タクシー",
    "postal": "910-2205",
    "locality": "福井市",
    "address": "福井県福井市篭谷町３－１１",
    "tel": [
      "0776-96-4277"
    ],
    "latitude": 36.0276383,
    "longitude": 136.3904348
  },
  {
    "label": "都タクシー株式会社本社営業所",
    "postal": "910-4105",
    "locality": "あわら市",
    "address": "福井県あわら市舟津３丁目１５",
    "tel": [
      "0120-222385",
      "0776-77-2488"
    ],
    "latitude": 36.2258613,
    "longitude": 136.1906229
  },
  {
    "label": "敦賀タクシー株式会社",
    "postal": "914-0023",
    "locality": "敦賀市",
    "address": "福井県敦賀市深川町１０－２",
    "tel": [
      "0120-351414",
      "0770-22-1414"
    ],
    "latitude": 35.6398401,
    "longitude": 136.0840015
  },
  {
    "label": "敦賀第一交通株式会社",
    "postal": "914-0062",
    "locality": "敦賀市",
    "address": "福井県敦賀市相生町１８－２０",
    "tel": [
      "0120-674100",
      "0770-22-3366"
    ],
    "latitude": 35.6549994,
    "longitude": 136.0675891
  },
  {
    "label": "敦賀第一交通株式会社／営業課",
    "postal": "914-0062",
    "locality": "敦賀市",
    "address": "福井県敦賀市相生町１８－２０",
    "tel": [
      "0770-22-3371"
    ],
    "latitude": 35.6549994,
    "longitude": 136.0675891
  },
  {
    "label": "日ノ出タクシー",
    "postal": "910-0015",
    "locality": "福井市",
    "address": "福井県福井市二の宮３丁目１－１３",
    "tel": [
      "0120-245658",
      "0776-26-1199"
    ],
    "latitude": 36.0836144,
    "longitude": 136.2199967
  },
  {
    "label": "日本商運株式会社本社",
    "postal": "910-1104",
    "locality": "永平寺町",
    "address": "福井県吉田郡永平寺町松岡下合月１２－３",
    "tel": [
      "0776-61-1000"
    ],
    "latitude": 36.105605,
    "longitude": 136.3012361
  },
  {
    "label": "白山交通株式会社",
    "postal": "915-0872",
    "locality": "越前市",
    "address": "福井県越前市広瀬町１４４－７－１",
    "tel": [
      "0778-21-2500"
    ],
    "fax": "0778-21-2501",
    "latitude": 35.8894191,
    "longitude": 136.1463577
  },
  {
    "label": "美浜自動車株式会社タクシー",
    "postal": "919-1141",
    "locality": "美浜町",
    "address": "福井県三方郡美浜町郷市１３－１",
    "tel": [
      "0770-32-1133"
    ],
    "latitude": 35.6044712,
    "longitude": 135.9372098
  },
  {
    "label": "富山幸雄",
    "postal": "910-0017",
    "locality": "福井市",
    "address": "福井県福井市文京７丁目２３－３１",
    "tel": [
      "0776-26-5552"
    ],
    "latitude": 36.0783234,
    "longitude": 136.1971465
  },
  {
    "label": "武生タクシー／今立営業所",
    "postal": "915-0242",
    "locality": "越前市",
    "address": "福井県越前市粟田部町３２－１９－１",
    "tel": [
      "0120-422020",
      "0778-42-2020"
    ],
    "fax": "0778-42-2203",
    "email": "taketaxi@angel.ocn.ne.jp",
    "latitude": 35.9166711,
    "longitude": 136.2424961
  },
  {
    "label": "武生タクシー／貸切バス",
    "postal": "915-0071",
    "locality": "越前市",
    "address": "福井県越前市府中１丁目１２－２９",
    "tel": [
      "0778-24-1013"
    ],
    "latitude": 35.9036347,
    "longitude": 136.1698549
  },
  {
    "label": "武生タクシー／本社営業所",
    "postal": "915-0071",
    "locality": "越前市",
    "address": "福井県越前市府中１丁目１２－２９",
    "tel": [
      "0778-22-0012",
      "0120-220012"
    ],
    "fax": "0778-22-8667",
    "url": "http://www.fukutetsu-s.co.jp/",
    "email": "taketaxi@angel.ocn.ne.jp",
    "latitude": 35.9036347,
    "longitude": 136.1698549
  },
  {
    "label": "武生タクシー南条営業所",
    "postal": "919-0223",
    "locality": "南越前町",
    "address": "福井県南条郡南越前町東大道２８－７－１",
    "tel": [
      "0778-47-2117"
    ],
    "email": "taketaxi@aqua.hokuriku.ne.jp",
    "latitude": 35.8354613,
    "longitude": 136.1934934
  },
  {
    "label": "福井タクシー株式会社",
    "postal": "910-0843",
    "locality": "福井市",
    "address": "福井県福井市西開発３丁目５１０－１",
    "tel": [
      "0776-52-0101"
    ],
    "latitude": 36.0826569,
    "longitude": 136.2329568
  },
  {
    "label": "福井タクシー株式会社／タクシー受付",
    "postal": "910-0843",
    "locality": "福井市",
    "address": "福井県福井市西開発３丁目５１０－１",
    "tel": [
      "0120-240488"
    ],
    "latitude": 36.0826569,
    "longitude": 136.2329568
  },
  {
    "label": "福井県個人タクシー協同組合／事務所",
    "postal": "918-8108",
    "locality": "福井市",
    "address": "福井県福井市春日２丁目６－２５",
    "tel": [
      "0776-36-1703"
    ],
    "latitude": 36.051766,
    "longitude": 136.2183613
  },
  {
    "label": "福井県個人タクシー協同組合／無線配車",
    "postal": "918-8108",
    "locality": "福井市",
    "address": "福井県福井市春日２丁目６－２５",
    "tel": [
      "0776-36-1625"
    ],
    "latitude": 36.051766,
    "longitude": 136.2183613
  },
  {
    "label": "福井県民生活協同組合介護タクシー",
    "postal": "917-0241",
    "locality": "小浜市",
    "address": "福井県小浜市遠敷９丁目５０１",
    "tel": [
      "0770-56-5766"
    ],
    "latitude": 35.4841367,
    "longitude": 135.7738059
  },
  {
    "label": "福井交通株式会社／タクシー",
    "postal": "918-8231",
    "locality": "福井市",
    "address": "福井県福井市問屋町１丁目１７７",
    "tel": [
      "0776-23-0108",
      "0776-24-0108"
    ],
    "latitude": 36.0560081,
    "longitude": 136.2508479
  },
  {
    "label": "福井交通株式会社／受付",
    "postal": "918-8231",
    "locality": "福井市",
    "address": "福井県福井市問屋町１丁目１７７",
    "tel": [
      "0120-535108"
    ],
    "latitude": 36.0560081,
    "longitude": 136.2508479
  },
  {
    "label": "福井交通株式会社／総務経理",
    "postal": "910-0845",
    "locality": "福井市",
    "address": "福井県福井市志比口３丁目１－７",
    "tel": [
      "0776-43-9109"
    ],
    "latitude": 36.0717555,
    "longitude": 136.233937
  },
  {
    "label": "福井交通株式会社芦原営業所",
    "postal": "910-4103",
    "locality": "あわら市",
    "address": "福井県あわら市二面３４－４－８",
    "tel": [
      "0776-77-2337"
    ],
    "latitude": 36.2246338,
    "longitude": 136.1950614
  },
  {
    "label": "福井交通株式会社観光バス",
    "postal": "918-8231",
    "locality": "福井市",
    "address": "福井県福井市問屋町１丁目１７７",
    "tel": [
      "0776-23-0112"
    ],
    "latitude": 36.0560081,
    "longitude": 136.2508479
  },
  {
    "label": "福井交通乗合タクシー",
    "postal": "910-0845",
    "locality": "福井市",
    "address": "福井県福井市志比口３丁目１－７",
    "tel": [
      "0120-234255"
    ],
    "latitude": 36.0717555,
    "longitude": 136.233937
  },
  {
    "label": "福井市シルバー人材センター（公益社団法人）介護保険事業所",
    "postal": "910-0017",
    "locality": "福井市",
    "address": "福井県福井市文京１丁目２６－１０",
    "tel": [
      "0776-27-0180"
    ],
    "fax": "0776-27-0192",
    "latitude": 36.078379,
    "longitude": 136.221163
  },
  {
    "label": "福井都タクシー株式会社",
    "postal": "910-0843",
    "locality": "福井市",
    "address": "福井県福井市西開発３丁目５１０－１",
    "tel": [
      "0120-390818",
      "0776-53-0818"
    ],
    "fax": "0776-54-2756",
    "latitude": 36.0826569,
    "longitude": 136.2329568
  },
  {
    "label": "福祉タクシー空",
    "postal": "910-0339",
    "locality": "坂井市",
    "address": "福井県坂井市丸岡町寄永２－３",
    "tel": [
      "0776-63-6929"
    ],
    "latitude": 36.1144036,
    "longitude": 136.3000193
  },
  {
    "label": "有限会社オオギ観光タクシー",
    "postal": "919-1303",
    "locality": "若狭町",
    "address": "福井県三方上中郡若狭町三方３９－１２－６",
    "tel": [
      "0770-45-0015"
    ],
    "latitude": 35.5559571,
    "longitude": 135.9098119
  },
  {
    "label": "有限会社オオギ観光タクシー",
    "postal": "919-1123",
    "locality": "美浜町",
    "address": "福井県三方郡美浜町久々子６２－８",
    "tel": [
      "0770-32-6363"
    ],
    "latitude": 35.6072625,
    "longitude": 135.9259188
  },
  {
    "label": "有限会社プラン２１ケアサービスさくら介護タクシー",
    "postal": "910-0003",
    "locality": "福井市",
    "address": "福井県福井市松本３丁目２７－１０",
    "tel": [
      "0776-25-0401"
    ],
    "latitude": 36.0751517,
    "longitude": 136.2242266
  },
  {
    "label": "有限会社ゆう",
    "postal": "916-1112",
    "locality": "鯖江市",
    "address": "福井県鯖江市中戸口町１５－３６",
    "tel": [
      "0778-65-3651"
    ],
    "latitude": 35.9609017,
    "longitude": 136.2491941
  },
  {
    "label": "有限会社共栄タクシー",
    "postal": "918-8011",
    "locality": "福井市",
    "address": "福井県福井市月見４丁目２－１２",
    "tel": [
      "0776-36-8363"
    ],
    "fax": "0776-36-8570",
    "latitude": 36.0480135,
    "longitude": 136.2051459
  },
  {
    "label": "有限会社高橋タクシー",
    "postal": "910-4103",
    "locality": "あわら市",
    "address": "福井県あわら市二面４１－２５",
    "tel": [
      "0776-77-2861",
      "0776-77-2112"
    ],
    "latitude": 36.2254254,
    "longitude": 136.1959391
  },
  {
    "label": "有限会社今庄タクシー",
    "postal": "919-0131",
    "locality": "南越前町",
    "address": "福井県南条郡南越前町今庄７５－３９",
    "tel": [
      "0778-45-0038"
    ],
    "latitude": 35.7736271,
    "longitude": 136.1977683
  },
  {
    "label": "有限会社日の丸タクシー",
    "postal": "916-0111",
    "locality": "越前市",
    "address": "福井県丹生郡越前町小倉７７－２１－４５",
    "tel": [
      "0778-34-2188",
      "0778-34-1375"
    ],
    "fax": "0778-34-1375",
    "latitude": 35.9917912,
    "longitude": 136.0981011
  },
  {
    "label": "有限会社日の丸タクシー",
    "postal": "918-8037",
    "locality": "福井市",
    "address": "福井県福井市下江守町１９－１",
    "tel": [
      "0776-36-6752"
    ],
    "latitude": 36.0433884,
    "longitude": 136.178354
  },
  {
    "label": "有限会社日の丸タクシー",
    "postal": "910-0038",
    "locality": "福井市",
    "address": "福井県福井市三ツ屋１丁目３０４",
    "tel": [
      "0776-26-0039"
    ],
    "latitude": 36.0844143,
    "longitude": 136.1910502
  },
  {
    "label": "有限会社福井相互タクシー",
    "postal": "910-0804",
    "locality": "福井市",
    "address": "福井県福井市高木中央１丁目２８１３",
    "tel": [
      "0776-53-5100"
    ],
    "email": "skg-fukui@ii7.jp",
    "latitude": 36.087873,
    "longitude": 136.2343095
  },
  {
    "label": "有限会社福祉サービスふくいコアラ",
    "postal": "918-8004",
    "locality": "福井市",
    "address": "福井県福井市西木田３丁目４－２１",
    "tel": [
      "0776-35-7718"
    ],
    "email": "taji-f@mx2.fctv.ne.jp",
    "latitude": 36.0530379,
    "longitude": 136.2116647
  },
  {
    "label": "有塚タクシー",
    "postal": "910-0856",
    "locality": "福井市",
    "address": "福井県福井市勝見１丁目１－５",
    "tel": [
      "0776-26-2716"
    ],
    "latitude": 36.0571182,
    "longitude": 136.2267465
  },
  {
    "label": "福井都タクシー㈱",
    "postal": "910-0843",
    "locality": "福井市",
    "address": "福井市西開発3丁目510番地の1",
    "tel": [
      "0776-53-0771"
    ],
    "num_all": 51,
    "num_jumbo": 2,
    "num_fukushi": 1,
    "latitude": 36.0826569,
    "longitude": 136.2329568
  },
  {
    "label": "福井タクシー㈱",
    "postal": "910-0843",
    "locality": "福井市",
    "address": "福井市西開発3丁目510番地の1",
    "tel": [
      "0776-52-0228"
    ],
    "num_all": 23,
    "latitude": 36.0826569,
    "longitude": 136.2329568
  },
  {
    "label": "永平寺観光㈱",
    "postal": "910-1302",
    "locality": "永平寺町",
    "address": "吉田郡永平寺町市荒川第16号13番地の1",
    "tel": [
      "0776-52-0555"
    ],
    "url": "http://eiheijikanko.co.jp/",
    "num_all": 17,
    "num_jumbo": 3,
    "latitude": 36.0741585,
    "longitude": 136.4171698
  },
  {
    "label": "福鉄商事㈱ 武生タクシー事業部",
    "postal": "915-0071",
    "locality": "越前市",
    "address": "越前市府中１丁目12番29号",
    "tel": [
      "0778-24-0383"
    ],
    "num_all": 26,
    "num_jumbo": 2,
    "num_fukushi": 1,
    "latitude": 35.9036347,
    "longitude": 136.1698549
  },
  {
    "label": "小松タクシー㈲",
    "postal": "915-0816",
    "locality": "越前市",
    "address": "越前市小松１丁目４番７号",
    "tel": [
      "0778-22-1810"
    ],
    "num_all": 19,
    "num_jumbo": 2,
    "num_fukushi": 1,
    "latitude": 35.9038037,
    "longitude": 136.1567754
  },
  {
    "label": "池田観光㈱",
    "postal": "910-2512",
    "locality": "池田町",
    "address": "今立郡池田町稲荷25-10",
    "tel": [
      "0778-44-6660"
    ],
    "url": "http://ikekan.net/publics/index/13/",
    "num_all": 2,
    "num_jumbo": 1,
    "latitude": 35.8901694,
    "longitude": 136.3408212
  },
  {
    "label": "美浜自動車㈱",
    "postal": "919-1141",
    "locality": "美浜町",
    "address": "三方郡美浜町郷市13-1",
    "tel": [
      "0770-32-1132"
    ],
    "num_all": 23,
    "num_jumbo": 1,
    "latitude": 35.6044712,
    "longitude": 135.9372098
  },
  {
    "label": "高浜交通㈱",
    "postal": "919-2225",
    "locality": "高浜町",
    "address": "大飯郡高浜町宮崎第86号14-5\t",
    "tel": [
      "0770-72-0765"
    ],
    "num_all": 11,
    "num_jumbo": 3,
    "latitude": 35.4880616,
    "longitude": 135.5447544
  },
  {
    "label": "㈱アイメル",
    "postal": "910－0832",
    "locality": "福井市",
    "address": "福井市新保町38-1",
    "tel": [
      "0776-57-0110"
    ],
    "num_kanko": 1,
    "num_shindai_kurumaisu": 1,
    "latitude": 36.0828583,
    "longitude": 136.258416
  },
  {
    "label": "ゆうあい21㈲",
    "postal": "910－0001",
    "locality": "福井市",
    "address": "福井市大願寺3丁目9-3",
    "tel": [
      "0776-27-0021"
    ],
    "num_shindai_kurumaisu": 1,
    "latitude": 36.0843619,
    "longitude": 136.2283126
  },
  {
    "label": "㈲介護サポート翼",
    "postal": "916－0042",
    "locality": "鯖江市",
    "address": "鯖江市新横江2丁目2-14",
    "tel": [
      "0778-52-5665"
    ],
    "num_shindai_kurumaisu": 2,
    "latitude": 35.9418058,
    "longitude": 136.198062
  },
  {
    "label": "㈲あいぜん",
    "postal": "915－0872",
    "locality": "越前市",
    "address": "越前市広瀬町131-23",
    "tel": [
      "0778-21-1782"
    ],
    "num_shindai_kurumaisu": 2,
    "latitude": 35.8872777,
    "longitude": 136.143272
  },
  {
    "label": "介護タクシーもも木津和典",
    "postal": "915－0252",
    "locality": "越前市",
    "address": "越前市西庄境町10-26-1",
    "tel": [
      "0778-42-5666"
    ],
    "num_shindai_kurumaisu": 1,
    "latitude": 35.9347916,
    "longitude": 136.2479868
  },
  {
    "label": "㈱かくだ",
    "postal": "914－0812",
    "locality": "敦賀市",
    "address": "敦賀市昭和町2丁目20-16",
    "tel": [
      "0770-25-4141"
    ],
    "num_kanko": 1,
    "num_shindai_kurumaisu": 5,
    "latitude": 35.6396644,
    "longitude": 136.0586489
  },
  {
    "label": "㈲どりぃむ",
    "postal": "914－0135",
    "locality": "敦賀市",
    "address": "敦賀市長谷36-3-4",
    "tel": [
      "0770-23-5271"
    ],
    "num_shindai_kurumaisu": 1,
    "latitude": 35.6126202,
    "longitude": 136.0408762
  },
  {
    "label": "㈲おおきどケアサポートあゆみ",
    "postal": "917－0078",
    "locality": "小浜市",
    "address": "小浜市大手町8-33",
    "tel": [
      "0770-53-5070"
    ],
    "num_shindai_kurumaisu": 1,
    "latitude": 35.4974123,
    "longitude": 135.7459745
  }
]
